[
  { "id": 1,  "name": "Apache Maid",       "lat": 34.72603, "lng": -111.55094, "county": "Coconino",      "forest": "Coconino NF" },
  { "id": 2,  "name": "Aztec",             "lat": 33.81219, "lng": -110.90794, "county": "Gila",          "forest": "Tonto NF" },
  { "id": 3,  "name": "Baker Butte",       "lat": 34.45194, "lng": -111.37853, "county": "Coconino",      "forest": "Coconino NF" },
  { "id": 4,  "name": "Bear Mountain",     "lat": 33.53331, "lng": -109.14425, "county": "Greenlee",      "forest": "Apache-Sitgreaves NF" },
  { "id": 5,  "name": "Big Springs",       "lat": 36.59358, "lng": -112.33467, "county": "Coconino",      "forest": "Kaibab NF" },
  { "id": 6,  "name": "Mount Bigelow",    "lat": 32.41544, "lng": -110.71439, "county": "Pima",          "forest": "Coronado NF" },
  { "id": 7,  "name": "Bill Williams",     "lat": 35.19986, "lng": -112.20469, "county": "Coconino",      "forest": "Kaibab NF" },
  { "id": 8,  "name": "Black Pinnacle",    "lat": 36.25258, "lng": -109.15706, "county": "Apache",        "forest": "Navajo Nation" },
  { "id": 9,  "name": "Black Rock",        "lat": 36.77328, "lng": -113.80833, "county": "Mohave",        "forest": "BLM Arizona Strip" },
  { "id": 10, "name": "Blue",              "lat": 33.56250, "lng": -109.29678, "county": "Greenlee",      "forest": "Apache-Sitgreaves NF" },
  { "id": 11, "name": "Buck Mountain",     "lat": 34.66689, "lng": -111.41517, "county": "Coconino",      "forest": "Coconino NF" },
  { "id": 12, "name": "Buckskin",          "lat": 34.26858, "lng": -110.60817, "county": "Navajo",        "forest": "Apache-Sitgreaves NF" },
  { "id": 13, "name": "Chediski",          "lat": 34.18336, "lng": -110.66383, "county": "Navajo",        "forest": "Apache-Sitgreaves NF" },
  { "id": 14, "name": "Colcord",           "lat": 34.24742, "lng": -110.86097, "county": "Gila",          "forest": "Tonto NF" },
  { "id": 15, "name": "Deer Springs",      "lat": 34.30622, "lng": -110.42100, "county": "Navajo",        "forest": "Apache-Sitgreaves NF" },
  { "id": 16, "name": "Diamond Point",     "lat": 34.28747, "lng": -111.19281, "county": "Gila",          "forest": "Tonto NF" },
  { "id": 17, "name": "Dry Lake",          "lat": 33.35956, "lng": -109.83406, "county": "Graham",        "forest": "Coronado NF" },
  { "id": 18, "name": "Dry Park",          "lat": 36.45286, "lng": -112.23839, "county": "Coconino",      "forest": "Kaibab NF" },
  { "id": 19, "name": "East Pocket",       "lat": 34.97558, "lng": -111.76844, "county": "Coconino",      "forest": "Coconino NF" },
  { "id": 20, "name": "Elden",             "lat": 35.24097, "lng": -111.59758, "county": "Coconino",      "forest": "Coconino NF" },
  { "id": 21, "name": "Escudilla",         "lat": 33.94733, "lng": -109.12169, "county": "Apache",        "forest": "Apache-Sitgreaves NF" },
  { "id": 22, "name": "Fluted Rock",       "lat": 35.88611, "lng": -109.24919, "county": "Apache",        "forest": "Navajo Nation" },
  { "id": 23, "name": "Gentry",            "lat": 34.30150, "lng": -110.71322, "county": "Navajo",        "forest": "Apache-Sitgreaves NF" },
  { "id": 24, "name": "Grandview",         "lat": 35.95775, "lng": -111.95492, "county": "Coconino",      "forest": "Grand Canyon NP" },
  { "id": 25, "name": "Greens Peak",       "lat": 34.11183, "lng": -109.57444, "county": "Apache",        "forest": "Apache-Sitgreaves NF" },
  { "id": 26, "name": "Happy Valley",      "lat": 32.16761, "lng": -110.52303, "county": "Pima",          "forest": "Coronado NF" },
  { "id": 27, "name": "Heliograph",        "lat": 32.65011, "lng": -109.84908, "county": "Graham",        "forest": "Coronado NF" },
  { "id": 28, "name": "Hilltop",           "lat": 33.57497, "lng": -110.37864, "county": "Gila",          "forest": "Tonto NF" },
  { "id": 29, "name": "Hopi",              "lat": 36.07144, "lng": -112.15458, "county": "Coconino",      "forest": "Grand Canyon NP" },
  { "id": 30, "name": "Horsethief",        "lat": 34.16244, "lng": -112.29272, "county": "Yavapai",       "forest": "Prescott NF" },
  { "id": 31, "name": "Humboldt",          "lat": 33.98117, "lng": -111.79792, "county": "Maricopa",      "forest": "Tonto NF" },
  { "id": 32, "name": "Hutch Mountain",    "lat": 34.80194, "lng": -111.39017, "county": "Coconino",      "forest": "Coconino NF" },
  { "id": 33, "name": "Hyde Mountain",     "lat": 34.83519, "lng": -112.91867, "county": "Yavapai",       "forest": "Prescott NF" },
  { "id": 34, "name": "Jacob Lake",        "lat": 36.69981, "lng": -112.21361, "county": "Coconino",      "forest": "Kaibab NF" },
  { "id": 35, "name": "Juniper Ridge",     "lat": 34.26942, "lng": -110.19131, "county": "Navajo",        "forest": "Apache-Sitgreaves NF" },
  { "id": 36, "name": "Kanabownits",       "lat": 36.29000, "lng": -112.21239, "county": "Coconino",      "forest": "Grand Canyon NP" },
  { "id": 37, "name": "Kendrick",          "lat": 35.40792, "lng": -111.85108, "county": "Coconino",      "forest": "Kaibab NF" },
  { "id": 38, "name": "Lake Mountain",     "lat": 34.15786, "lng": -109.76931, "county": "Apache",        "forest": "Apache-Sitgreaves NF" },
  { "id": 39, "name": "Lee Butte",         "lat": 34.83442, "lng": -111.53697, "county": "Coconino",      "forest": "Coconino NF" },
  { "id": 40, "name": "Lemmon Rock",       "lat": 32.43486, "lng": -110.78939, "county": "Pima",          "forest": "Coronado NF" },
  { "id": 41, "name": "Limestone",         "lat": 34.17892, "lng": -110.27500, "county": "Navajo",        "forest": "Apache-Sitgreaves NF" },
  { "id": 42, "name": "Maverick Mountain", "lat": 33.62519, "lng": -109.68697, "county": "Apache",        "forest": "Apache-Sitgreaves NF" },
  { "id": 43, "name": "McFadden",          "lat": 33.91000, "lng": -110.96575, "county": "Gila",          "forest": "Tonto NF" },
  { "id": 44, "name": "McKay Peak",        "lat": 33.97625, "lng": -109.79825, "county": "Apache",        "forest": "Apache-Sitgreaves NF" },
  { "id": 45, "name": "Mingus Mountain",   "lat": 34.69417, "lng": -112.12772, "county": "Yavapai",       "forest": "Prescott NF" },
  { "id": 46, "name": "Monte Vista",       "lat": 31.82508, "lng": -109.31553, "county": "Cochise",       "forest": "Coronado NF" },
  { "id": 47, "name": "Moqui",             "lat": 34.56428, "lng": -111.16906, "county": "Coconino",      "forest": "Coconino NF" },
  { "id": 48, "name": "North Rim",         "lat": 36.33053, "lng": -112.10183, "county": "Coconino",      "forest": "Grand Canyon NP" },
  { "id": 49, "name": "Oak Ridge",         "lat": 35.60158, "lng": -109.24275, "county": "Apache",        "forest": "Navajo Nation" },
  { "id": 50, "name": "Odart Mountain",    "lat": 33.72847, "lng": -109.64883, "county": "Apache",        "forest": "Apache-Sitgreaves NF" },
  { "id": 51, "name": "O'Haco",            "lat": 34.44097, "lng": -111.07489, "county": "Coconino",      "forest": "Apache-Sitgreaves NF" },
  { "id": 52, "name": "O'Leary",           "lat": 35.40142, "lng": -111.52647, "county": "Coconino",      "forest": "Coconino NF" },
  { "id": 53, "name": "Mount Ord",        "lat": 33.90497, "lng": -111.40903, "county": "Gila/Maricopa", "forest": "Tonto NF" },
  { "id": 54, "name": "Piney Hill",        "lat": 35.76133, "lng": -109.16833, "county": "Apache",        "forest": "Navajo Nation" },
  { "id": 55, "name": "Promontory",        "lat": 34.36717, "lng": -111.01275, "county": "Coconino",      "forest": "Apache-Sitgreaves NF" },
  { "id": 56, "name": "PS Knoll",          "lat": 33.75436, "lng": -109.39833, "county": "Apache",        "forest": "Apache-Sitgreaves NF" },
  { "id": 57, "name": "Red Butte",         "lat": 35.82061, "lng": -112.08994, "county": "Coconino",      "forest": "Kaibab NF" },
  { "id": 58, "name": "Red Mountain",      "lat": 31.50656, "lng": -110.72633, "county": "Santa Cruz",    "forest": "Coronado NF" },
  { "id": 59, "name": "Reno",              "lat": 33.62086, "lng": -109.42917, "county": "Greenlee",      "forest": "Apache-Sitgreaves NF" },
  { "id": 60, "name": "Roof Butte",        "lat": 36.46083, "lng": -109.09592, "county": "Apache",        "forest": "Navajo Nation" },
  { "id": 61, "name": "Rose Peak",         "lat": 33.43994, "lng": -109.37106, "county": "Greenlee",      "forest": "Apache-Sitgreaves NF" },
  { "id": 62, "name": "Signal Hill",       "lat": 36.17033, "lng": -112.35731, "county": "Coconino",      "forest": "Kaibab NF" },
  { "id": 63, "name": "Signal Peak",       "lat": 33.29317, "lng": -110.83597, "county": "Gila",          "forest": "Tonto NF" },
  { "id": 64, "name": "Springer Mountain", "lat": 34.14756, "lng": -109.94853, "county": "Navajo",        "forest": "Apache-Sitgreaves NF" },
  { "id": 65, "name": "Spruce Mountain",   "lat": 34.46317, "lng": -112.40389, "county": "Yavapai",       "forest": "Prescott NF" },
  { "id": 66, "name": "Sugarloaf",         "lat": 32.01414, "lng": -109.32508, "county": "Cochise",       "forest": "Chiricahua NM" },
  { "id": 67, "name": "Thornton",          "lat": 35.84650, "lng": -113.05453, "county": "Coconino",      "forest": "Kaibab NF" },
  { "id": 68, "name": "Tower Mountain",    "lat": 34.23408, "lng": -112.36794, "county": "Yavapai",       "forest": "Prescott NF" },
  { "id": 69, "name": "Turkey Butte",      "lat": 35.03206, "lng": -111.90419, "county": "Coconino",      "forest": "Coconino NF" },
  { "id": 70, "name": "Mount Union",      "lat": 34.41503, "lng": -112.40439, "county": "Yavapai",       "forest": "Prescott NF" },
  { "id": 71, "name": "Volunteer",         "lat": 35.21797, "lng": -111.89558, "county": "Coconino",      "forest": "Coconino NF" },
  { "id": 72, "name": "Webb Peak",         "lat": 32.71147, "lng": -109.92267, "county": "Graham",        "forest": "Coronado NF" },
  { "id": 73, "name": "West Peak",         "lat": 32.73736, "lng": -110.03867, "county": "Graham",        "forest": "Coronado NF" },
  { "id": 74, "name": "Whitney Pass",      "lat": 36.53244, "lng": -114.04832, "county": "Mohave",        "forest": "Hualapai Nation" },
  { "id": 75, "name": "Willow Mountain",   "lat": 33.46178, "lng": -109.59400, "county": "Graham",        "forest": "Coronado NF" },
  { "id": 76, "name": "Woody Mountain",    "lat": 35.14222, "lng": -111.75181, "county": "Coconino",      "forest": "Coconino NF" }
]